{
  "artist": "Twenty One Pilots",
  "tour": "Blurryface",
  "totalShows": 150,
  "shows": [
    {
      "order": 1,
      "date": "01-05-2016",
      "venue": "Murray Sports Complex - Townsville Cricket Grounds",
      "city": "Townsville",
      "country": "Australia",
      "coords": {
        "lat": -19.25,
        "long": 146.8
      },
      "tour": "BLURRYFACE World Tour",
      "setlistId": "3f1193f",
      "url": "https://www.setlist.fm/setlist/twenty-one-pilots/2016/murray-sports-complex-townsville-cricket-grounds-townsville-australia-3f1193f.html"
    },
    {
      "order": 2,
      "date": "03-05-2016",
      "venue": "The Tivoli",
      "city": "Brisbane",
      "country": "Australia",
      "coords": {
        "lat": -27.4679357321901,
        "long": 153.028092384338
      },
      "tour": "BLURRYFACE World Tour",
      "setlistId": "43f117e7",
      "url": "https://www.setlist.fm/setlist/twenty-one-pilots/2016/the-tivoli-brisbane-australia-43f117e7.html"
    },
    {
      "order": 3,
      "date": "05-05-2016",
      "venue": "Astor Theatre",
      "city": "Perth",
      "country": "Australia",
      "coords": {
        "lat": -31.9333333,
        "long": 115.8333333
      },
      "tour": "BLURRYFACE World Tour",
      "setlistId": "3f109bb",
      "url": "https://www.setlist.fm/setlist/twenty-one-pilots/2016/astor-theatre-perth-australia-3f109bb.html"
    },
    {
      "order": 4,
      "date": "07-05-2016",
      "venue": "Hay Park",
      "city": "Bunbury",
      "country": "Australia",
      "coords": {
        "lat": -33.3333333,
        "long": 115.6333333
      },
      "tour": "BLURRYFACE World Tour",
      "setlistId": "3f17dd3",
      "url": "https://www.setlist.fm/setlist/twenty-one-pilots/2016/hay-park-bunbury-australia-3f17dd3.html"
    },
    {
      "order": 5,
      "date": "30-04-2016",
      "venue": "Prince of Wales Showgrounds",
      "city": "Bendigo",
      "country": "Australia",
      "coords": {
        "lat": -36.7666667,
        "long": 144.2833333
      },
      "tour": "BLURRYFACE World Tour",
      "setlistId": "4bf123aa",
      "url": "https://www.setlist.fm/setlist/twenty-one-pilots/2016/prince-of-wales-showgrounds-bendigo-australia-4bf123aa.html"
    },
    {
      "order": 6,
      "date": "28-04-2016",
      "venue": "Forum Theatre",
      "city": "Melbourne",
      "country": "Australia",
      "coords": {
        "lat": -37.8139965641595,
        "long": 144.963322877884
      },
      "tour": "BLURRYFACE World Tour",
      "setlistId": "23f1300b",
      "url": "https://www.setlist.fm/setlist/twenty-one-pilots/2016/forum-theatre-melbourne-australia-23f1300b.html"
    },
    {
      "order": 7,
      "date": "27-04-2016",
      "venue": "Forum Theatre",
      "city": "Melbourne",
      "country": "Australia",
      "coords": {
        "lat": -37.8139965641595,
        "long": 144.963322877884
      },
      "tour": "BLURRYFACE World Tour",
      "setlistId": "6bf13aba",
      "url": "https://www.setlist.fm/setlist/twenty-one-pilots/2016/forum-theatre-melbourne-australia-6bf13aba.html"
    },
    {
      "order": 8,
      "date": "25-04-2016",
      "venue": "Oakbank Racecourse",
      "city": "Oakbank",
      "country": "Australia",
      "coords": {
        "lat": -33.05,
        "long": 140.5833333
      },
      "tour": "BLURRYFACE World Tour",
      "setlistId": "43f1c793",
      "url": "https://www.setlist.fm/setlist/twenty-one-pilots/2016/oakbank-racecourse-oakbank-australia-43f1c793.html"
    },
    {
      "order": 9,
      "date": "24-04-2016",
      "venue": "The Meadows, University of Canberra",
      "city": "Canberra",
      "country": "Australia",
      "coords": {
        "lat": -35.2834624726481,
        "long": 149.128074645996
      },
      "tour": "BLURRYFACE World Tour",
      "setlistId": "7bf1ca70",
      "url": "https://www.setlist.fm/setlist/twenty-one-pilots/2016/the-meadows-university-of-canberra-canberra-australia-7bf1ca70.html"
    },
    {
      "order": 10,
      "date": "23-04-2016",
      "venue": "Maitland Showground",
      "city": "Maitland",
      "country": "Australia",
      "coords": {
        "lat": -32.7333333,
        "long": 151.55
      },
      "tour": "BLURRYFACE World Tour",
      "setlistId": "3bf1cc88",
      "url": "https://www.setlist.fm/setlist/twenty-one-pilots/2016/maitland-showground-maitland-australia-3bf1cc88.html"
    },
    {
      "order": 11,
      "date": "21-04-2016",
      "venue": "Roundhouse",
      "city": "Sydney",
      "country": "Australia",
      "coords": {
        "lat": -33.8678499639382,
        "long": 151.207323074341
      },
      "tour": "BLURRYFACE World Tour",
      "setlistId": "73f1e2b1",
      "url": "https://www.setlist.fm/setlist/twenty-one-pilots/2016/roundhouse-sydney-australia-73f1e2b1.html"
    },
    {
      "order": 12,
      "date": "20-04-2016",
      "venue": "Roundhouse",
      "city": "Sydney",
      "country": "Australia",
      "coords": {
        "lat": -33.8678499639382,
        "long": 151.207323074341
      },
      "tour": "BLURRYFACE World Tour",
      "setlistId": "23f1e41f",
      "url": "https://www.setlist.fm/setlist/twenty-one-pilots/2016/roundhouse-sydney-australia-23f1e41f.html"
    },
    {
      "order": 13,
      "date": "18-04-2016",
      "venue": "Vector Arena",
      "city": "Auckland",
      "country": "New Zealand",
      "coords": {
        "lat": -36.8666667,
        "long": 174.7666667
      },
      "tour": "BLURRYFACE World Tour",
      "setlistId": "53f1f719",
      "url": "https://www.setlist.fm/setlist/twenty-one-pilots/2016/vector-arena-auckland-new-zealand-53f1f719.html"
    },
    {
      "order": 14,
      "date": "01-04-2016",
      "venue": "TD Place Arena",
      "city": "Ottawa",
      "country": "Canada",
      "coords": {
        "lat": 45.4209405046496,
        "long": -75.6902861595154
      },
      "tour": "BLURRYFACE World Tour",
      "setlistId": "6bf05e32",
      "url": "https://www.setlist.fm/setlist/twenty-one-pilots/2016/td-place-arena-ottawa-on-canada-6bf05e32.html"
    },
    {
      "order": 15,
      "date": "02-04-2016",
      "venue": "Discovery Green",
      "city": "Houston",
      "country": "United States",
      "coords": {
        "lat": 29.7632836,
        "long": -95.3632715
      },
      "tour": "BLURRYFACE World Tour",
      "setlistId": "63f04aff",
      "url": "https://www.setlist.fm/setlist/twenty-one-pilots/2016/discovery-green-houston-tx-63f04aff.html"
    },
    {
      "order": 16,
      "date": "04-04-2016",
      "venue": "Burton Cummings Theatre",
      "city": "Winnipeg",
      "country": "Canada",
      "coords": {
        "lat": 49.884398624,
        "long": -97.147044715
      },
      "tour": "BLURRYFACE World Tour",
      "setlistId": "13f04919",
      "url": "https://www.setlist.fm/setlist/twenty-one-pilots/2016/burton-cummings-theatre-winnipeg-mb-canada-13f04919.html"
    },
    {
      "order": 17,
      "date": "05-04-2016",
      "venue": "O'Brians Event Centre",
      "city": "Saskatoon",
      "country": "Canada",
      "coords": {
        "lat": 52.116786331,
        "long": -106.634521548
      },
      "tour": "BLURRYFACE World Tour",
      "setlistId": "23f044b7",
      "url": "https://www.setlist.fm/setlist/twenty-one-pilots/2016/obrians-event-centre-saskatoon-sk-canada-23f044b7.html"
    },
    {
      "order": 18,
      "date": "07-04-2016",
      "venue": "Northern Alberta Jubilee Auditorium",
      "city": "Edmonton",
      "country": "Canada",
      "coords": {
        "lat": 53.550135939,
        "long": -113.468712219
      },
      "tour": "BLURRYFACE World Tour",
      "setlistId": "3f1b5a3",
      "url": "https://www.setlist.fm/setlist/twenty-one-pilots/2016/northern-alberta-jubilee-auditorium-edmonton-ab-canada-3f1b5a3.html"
    },
    {
      "order": 19,
      "date": "08-04-2016",
      "venue": "Big Four Building",
      "city": "Calgary",
      "country": "Canada",
      "coords": {
        "lat": 51.050112282,
        "long": -114.085285152
      },
      "tour": "BLURRYFACE World Tour",
      "setlistId": "33f1b0d9",
      "url": "https://www.setlist.fm/setlist/twenty-one-pilots/2016/big-four-building-calgary-ab-canada-33f1b0d9.html"
    },
    {
      "order": 20,
      "date": "10-04-2016",
      "venue": "Queen Elizabeth Theatre",
      "city": "Vancouver",
      "country": "Canada",
      "coords": {
        "lat": 49.249657393,
        "long": -123.119340403
      },
      "tour": "BLURRYFACE World Tour",
      "setlistId": "bf1a12e",
      "url": "https://www.setlist.fm/setlist/twenty-one-pilots/2016/queen-elizabeth-theatre-vancouver-bc-canada-bf1a12e.html"
    },
    {
      "order": 21,
      "date": "11-04-2016",
      "venue": "Queen Elizabeth Theatre",
      "city": "Vancouver",
      "country": "Canada",
      "coords": {
        "lat": 49.249657393,
        "long": -123.119340403
      },
      "tour": "BLURRYFACE World Tour",
      "setlistId": "53f19b95",
      "url": "https://www.setlist.fm/setlist/twenty-one-pilots/2016/queen-elizabeth-theatre-vancouver-bc-canada-53f19b95.html"
    },
    {
      "order": 22,
      "date": "31-03-2016",
      "venue": "Metropolis",
      "city": "Montreal",
      "country": "Canada",
      "coords": {
        "lat": 45.5088375,
        "long": -73.587809
      },
      "tour": "BLURRYFACE World Tour",
      "setlistId": "5bf067b8",
      "url": "https://www.setlist.fm/setlist/twenty-one-pilots/2016/metropolis-montreal-qc-canada-5bf067b8.html"
    },
    {
      "order": 23,
      "date": "30-03-2016",
      "venue": "Metropolis",
      "city": "Montreal",
      "country": "Canada",
      "coords": {
        "lat": 45.5088375,
        "long": -73.587809
      },
      "tour": "BLURRYFACE World Tour",
      "setlistId": "3bf06c94",
      "url": "https://www.setlist.fm/setlist/twenty-one-pilots/2016/metropolis-montreal-qc-canada-3bf06c94.html"
    },
    {
      "order": 24,
      "date": "20-03-2016",
      "venue": "Parque O'Higgins",
      "city": "Santiago",
      "country": "Chile",
      "coords": {
        "lat": -33.426,
        "long": -70.567
      },
      "tour": "BLURRYFACE World Tour",
      "setlistId": "73f02ae5",
      "url": "https://www.setlist.fm/setlist/twenty-one-pilots/2016/parque-ohiggins-santiago-chile-73f02ae5.html"
    },
    {
      "order": 25,
      "date": "20-03-2016",
      "venue": "Parque O'Higgins",
      "city": "Santiago",
      "country": "Chile",
      "coords": {
        "lat": -33.426,
        "long": -70.567
      },
      "tour": "BLURRYFACE World Tour",
      "setlistId": "7349d6ed",
      "url": "https://www.setlist.fm/setlist/twenty-one-pilots/2016/parque-ohiggins-santiago-chile-7349d6ed.html"
    },
    {
      "order": 26,
      "date": "18-03-2016",
      "venue": "Main Stage 2",
      "city": "San Isidro",
      "country": "Argentina",
      "coords": {
        "lat": -34.4708333,
        "long": -58.5286111
      },
      "tour": "BLURRYFACE World Tour",
      "setlistId": "33f03821",
      "url": "https://www.setlist.fm/setlist/twenty-one-pilots/2016/main-stage-2-san-isidro-argentina-33f03821.html"
    },
    {
      "order": 27,
      "date": "16-03-2016",
      "venue": "Sacadura Cabral",
      "city": "Rio de Janeiro",
      "country": "Brazil",
      "coords": {
        "lat": -22.903,
        "long": -43.208
      },
      "tour": "BLURRYFACE World Tour",
      "setlistId": "7bf0c67c",
      "url": "https://www.setlist.fm/setlist/twenty-one-pilots/2016/sacadura-cabral-rio-de-janeiro-brazil-7bf0c67c.html"
    },
    {
      "order": 28,
      "date": "13-03-2016",
      "venue": "Autódromo de Interlagos",
      "city": "São Paulo",
      "country": "Brazil",
      "coords": {
        "lat": -23.5475,
        "long": -46.63611111
      },
      "tour": "BLURRYFACE World Tour",
      "setlistId": "73f0daf9",
      "url": "https://www.setlist.fm/setlist/twenty-one-pilots/2016/autodromo-de-interlagos-sao-paulo-brazil-73f0daf9.html"
    },
    {
      "order": 29,
      "date": "07-03-2016",
      "venue": "BIGCAT",
      "city": "Osaka",
      "country": "Japan",
      "coords": {
        "lat": 34.694,
        "long": 135.502
      },
      "tour": "BLURRYFACE World Tour",
      "setlistId": "6bf0fe66",
      "url": "https://www.setlist.fm/setlist/twenty-one-pilots/2016/bigcat-osaka-japan-6bf0fe66.html"
    },
    {
      "order": 30,
      "date": "09-03-2016",
      "venue": "STUDIO COAST",
      "city": "Tokyo",
      "country": "Japan",
      "coords": {
        "lat": 35.69,
        "long": 139.692
      },
      "tour": "BLURRYFACE World Tour",
      "setlistId": "43f0efd3",
      "url": "https://www.setlist.fm/setlist/twenty-one-pilots/2016/studio-coast-tokyo-japan-43f0efd3.html"
    },
    {
      "order": 31,
      "date": "29-02-2016",
      "venue": "Portsmouth Guildhall",
      "city": "Portsmouth",
      "country": "United Kingdom",
      "coords": {
        "lat": 50.8090805768295,
        "long": -1.07142448425293
      },
      "tour": "BLURRYFACE World Tour",
      "setlistId": "3bf0a854",
      "url": "https://www.setlist.fm/setlist/twenty-one-pilots/2016/portsmouth-guildhall-portsmouth-england-3bf0a854.html"
    },
    {
      "order": 32,
      "date": "28-02-2016",
      "venue": "O2 Academy Bristol",
      "city": "Bristol",
      "country": "United Kingdom",
      "coords": {
        "lat": 51.45,
        "long": -2.5833333
      },
      "tour": "BLURRYFACE World Tour",
      "setlistId": "7bf0b29c",
      "url": "https://www.setlist.fm/setlist/twenty-one-pilots/2016/o2-academy-bristol-bristol-england-7bf0b29c.html"
    },
    {
      "order": 33,
      "date": "27-02-2016",
      "venue": "Rock City",
      "city": "Nottingham",
      "country": "United Kingdom",
      "coords": {
        "lat": 52.9536023000285,
        "long": -1.15047454833984
      },
      "tour": "BLURRYFACE World Tour",
      "setlistId": "5bf0b738",
      "url": "https://www.setlist.fm/setlist/twenty-one-pilots/2016/rock-city-nottingham-england-5bf0b738.html"
    },
    {
      "order": 34,
      "date": "25-02-2016",
      "venue": "O2 Academy Brixton",
      "city": "London",
      "country": "United Kingdom",
      "coords": {
        "lat": 51.5084152563931,
        "long": -0.125532746315002
      },
      "tour": "BLURRYFACE World Tour",
      "setlistId": "5bf34314",
      "url": "https://www.setlist.fm/setlist/twenty-one-pilots/2016/o2-academy-brixton-london-england-5bf34314.html"
    },
    {
      "order": 35,
      "date": "24-02-2016",
      "venue": "O2 Academy Brixton",
      "city": "London",
      "country": "United Kingdom",
      "coords": {
        "lat": 51.5084152563931,
        "long": -0.125532746315002
      },
      "tour": "BLURRYFACE World Tour",
      "setlistId": "53f34b49",
      "url": "https://www.setlist.fm/setlist/twenty-one-pilots/2016/o2-academy-brixton-london-england-53f34b49.html"
    },
    {
      "order": 36,
      "date": "23-02-2016",
      "venue": "O2 Academy",
      "city": "Birmingham",
      "country": "United Kingdom",
      "coords": {
        "lat": 52.4666667,
        "long": -1.9166667
      },
      "tour": "BLURRYFACE World Tour",
      "setlistId": "33f57c0d",
      "url": "https://www.setlist.fm/setlist/twenty-one-pilots/2016/o2-academy-birmingham-england-33f57c0d.html"
    },
    {
      "order": 37,
      "date": "21-02-2016",
      "venue": "Manchester Academy 1",
      "city": "Manchester",
      "country": "United Kingdom",
      "coords": {
        "lat": 53.4809464283615,
        "long": -2.23743438720703
      },
      "tour": "BLURRYFACE World Tour",
      "setlistId": "6bf35eb2",
      "url": "https://www.setlist.fm/setlist/twenty-one-pilots/2016/manchester-academy-1-manchester-england-6bf35eb2.html"
    },
    {
      "order": 38,
      "date": "20-02-2016",
      "venue": "Barrowland",
      "city": "Glasgow",
      "country": "United Kingdom",
      "coords": {
        "lat": 55.8333333,
        "long": -4.25
      },
      "tour": "BLURRYFACE World Tour",
      "setlistId": "4bf363ee",
      "url": "https://www.setlist.fm/setlist/twenty-one-pilots/2016/barrowland-glasgow-scotland-4bf363ee.html"
    },
    {
      "order": 39,
      "date": "19-02-2016",
      "venue": "O2 Academy Newcastle",
      "city": "Newcastle upon Tyne",
      "country": "United Kingdom",
      "coords": {
        "lat": 54.973,
        "long": -1.614
      },
      "tour": "BLURRYFACE World Tour",
      "setlistId": "33f36471",
      "url": "https://www.setlist.fm/setlist/twenty-one-pilots/2016/o2-academy-newcastle-newcastle-upon-tyne-england-33f36471.html"
    },
    {
      "order": 40,
      "date": "18-02-2016",
      "venue": "O2 Academy Leeds",
      "city": "Leeds",
      "country": "United Kingdom",
      "coords": {
        "lat": 51.2333333,
        "long": 0.6166667
      },
      "tour": "BLURRYFACE World Tour",
      "setlistId": "3f36d33",
      "url": "https://www.setlist.fm/setlist/twenty-one-pilots/2016/o2-academy-leeds-leeds-england-3f36d33.html"
    },
    {
      "order": 41,
      "date": "16-02-2016",
      "venue": "Poppodium 013",
      "city": "Tilburg",
      "country": "Netherlands",
      "coords": {
        "lat": 51.555514883268,
        "long": 5.09130477905273
      },
      "tour": "BLURRYFACE World Tour",
      "setlistId": "7bf37e94",
      "url": "https://www.setlist.fm/setlist/twenty-one-pilots/2016/poppodium-013-tilburg-netherlands-7bf37e94.html"
    },
    {
      "order": 42,
      "date": "15-02-2016",
      "venue": "Le Trianon",
      "city": "Paris",
      "country": "France",
      "coords": {
        "lat": 48.853,
        "long": 2.349
      },
      "tour": "BLURRYFACE World Tour",
      "setlistId": "73f30691",
      "url": "https://www.setlist.fm/setlist/twenty-one-pilots/2016/le-trianon-paris-france-73f30691.html"
    },
    {
      "order": 43,
      "date": "14-02-2016",
      "venue": "Ancienne Belgique",
      "city": "Brussels",
      "country": "Belgium",
      "coords": {
        "lat": 50.847,
        "long": 4.353
      },
      "tour": "BLURRYFACE World Tour",
      "setlistId": "3bf3082c",
      "url": "https://www.setlist.fm/setlist/twenty-one-pilots/2016/ancienne-belgique-brussels-belgium-3bf3082c.html"
    },
    {
      "order": 44,
      "date": "01-12-2015",
      "venue": "The NorVa",
      "city": "Norfolk",
      "country": "United States",
      "coords": {
        "lat": 36.8468146,
        "long": -76.2852183
      },
      "tour": "BLURRYFACE World Tour",
      "setlistId": "1bf29564",
      "url": "https://www.setlist.fm/setlist/twenty-one-pilots/2015/the-norva-norfolk-va-1bf29564.html"
    },
    {
      "order": 45,
      "date": "02-12-2015",
      "venue": "The National",
      "city": "Richmond",
      "country": "United States",
      "coords": {
        "lat": 37.5537575,
        "long": -77.4602617
      },
      "tour": "BLURRYFACE World Tour",
      "setlistId": "3f28d03",
      "url": "https://www.setlist.fm/setlist/twenty-one-pilots/2015/the-national-richmond-va-3f28d03.html"
    },
    {
      "order": 46,
      "date": "03-12-2015",
      "venue": "Aragon Ballroom",
      "city": "Chicago",
      "country": "United States",
      "coords": {
        "lat": 41.850033,
        "long": -87.6500523
      },
      "tour": "BLURRYFACE World Tour",
      "setlistId": "63f28a47",
      "url": "https://www.setlist.fm/setlist/twenty-one-pilots/2015/aragon-ballroom-chicago-il-63f28a47.html"
    },
    {
      "order": 47,
      "date": "04-11-2015",
      "venue": "O2 ABC",
      "city": "Glasgow",
      "country": "United Kingdom",
      "coords": {
        "lat": 55.8333333,
        "long": -4.25
      },
      "tour": "BLURRYFACE World Tour",
      "setlistId": "1bf5c51c",
      "url": "https://www.setlist.fm/setlist/twenty-one-pilots/2015/o2-abc-glasgow-scotland-1bf5c51c.html"
    },
    {
      "order": 48,
      "date": "05-11-2015",
      "venue": "O2 Ritz",
      "city": "Manchester",
      "country": "United Kingdom",
      "coords": {
        "lat": 53.4809464283615,
        "long": -2.23743438720703
      },
      "tour": "BLURRYFACE World Tour",
      "setlistId": "7bf5c298",
      "url": "https://www.setlist.fm/setlist/twenty-one-pilots/2015/o2-ritz-manchester-england-7bf5c298.html"
    },
    {
      "order": 49,
      "date": "05-12-2015",
      "venue": "MidFlorida Credit Union Amphitheatre",
      "city": "Tampa",
      "country": "United States",
      "coords": {
        "lat": 27.9475216,
        "long": -82.4584279
      },
      "tour": "BLURRYFACE World Tour",
      "setlistId": "7bf2fef0",
      "url": "https://www.setlist.fm/setlist/twenty-one-pilots/2015/midflorida-credit-union-amphitheatre-tampa-fl-7bf2fef0.html"
    },
    {
      "order": 50,
      "date": "06-11-2015",
      "venue": "O2 Shepherd's Bush Empire",
      "city": "London",
      "country": "United Kingdom",
      "coords": {
        "lat": 51.5084152563931,
        "long": -0.125532746315002
      },
      "tour": "BLURRYFACE World Tour",
      "setlistId": "4bf53b26",
      "url": "https://www.setlist.fm/setlist/twenty-one-pilots/2015/o2-shepherds-bush-empire-london-england-4bf53b26.html"
    },
    {
      "order": 51,
      "date": "06-12-2015",
      "venue": "Metropolitan Park",
      "city": "Jacksonville",
      "country": "United States",
      "coords": {
        "lat": 30.3321838,
        "long": -81.655651
      },
      "tour": "BLURRYFACE World Tour",
      "setlistId": "2bf2f466",
      "url": "https://www.setlist.fm/setlist/twenty-one-pilots/2015/metropolitan-park-jacksonville-fl-2bf2f466.html"
    },
    {
      "order": 52,
      "date": "07-11-2015",
      "venue": "O2 Academy Oxford",
      "city": "Oxford",
      "country": "United Kingdom",
      "coords": {
        "lat": 51.7522210025796,
        "long": -1.25596046447754
      },
      "tour": "BLURRYFACE World Tour",
      "setlistId": "3bf53020",
      "url": "https://www.setlist.fm/setlist/twenty-one-pilots/2015/o2-academy-oxford-oxford-england-3bf53020.html"
    },
    {
      "order": 53,
      "date": "08-12-2015",
      "venue": "KeyArena",
      "city": "Seattle",
      "country": "United States",
      "coords": {
        "lat": 47.6062095,
        "long": -122.3320708
      },
      "tour": "BLURRYFACE World Tour",
      "setlistId": "63f2ead7",
      "url": "https://www.setlist.fm/setlist/twenty-one-pilots/2015/keyarena-seattle-wa-63f2ead7.html"
    },
    {
      "order": 54,
      "date": "09-11-2015",
      "venue": "O2 Institute",
      "city": "Birmingham",
      "country": "United Kingdom",
      "coords": {
        "lat": 52.4666667,
        "long": -1.9166667
      },
      "tour": "BLURRYFACE World Tour",
      "setlistId": "1bf51d6c",
      "url": "https://www.setlist.fm/setlist/twenty-one-pilots/2015/o2-institute-birmingham-england-1bf51d6c.html"
    },
    {
      "order": 55,
      "date": "09-12-2015",
      "venue": "Vogue Theatre",
      "city": "Vancouver",
      "country": "Canada",
      "coords": {
        "lat": 49.249657393,
        "long": -123.119340403
      },
      "tour": "BLURRYFACE World Tour",
      "setlistId": "6bf2e6ca",
      "url": "https://www.setlist.fm/setlist/twenty-one-pilots/2015/vogue-theatre-vancouver-bc-canada-6bf2e6ca.html"
    },
    {
      "order": 56,
      "date": "10-12-2015",
      "venue": "Crystal Ballroom",
      "city": "Portland",
      "country": "United States",
      "coords": {
        "lat": 45.5234515,
        "long": -122.6762071
      },
      "tour": "BLURRYFACE World Tour",
      "setlistId": "2bf2dc0a",
      "url": "https://www.setlist.fm/setlist/twenty-one-pilots/2015/crystal-ballroom-portland-or-2bf2dc0a.html"
    },
    {
      "order": 57,
      "date": "11-11-2015",
      "venue": "Le Trabendo",
      "city": "Paris",
      "country": "France",
      "coords": {
        "lat": 48.853,
        "long": 2.349
      },
      "tour": "BLURRYFACE World Tour",
      "setlistId": "2bf5145e",
      "url": "https://www.setlist.fm/setlist/twenty-one-pilots/2015/le-trabendo-paris-france-2bf5145e.html"
    },
    {
      "order": 58,
      "date": "11-12-2015",
      "venue": "Gothic Theatre",
      "city": "Englewood",
      "country": "United States",
      "coords": {
        "lat": 39.6477653,
        "long": -104.9877597
      },
      "tour": "BLURRYFACE World Tour",
      "setlistId": "53f2db39",
      "url": "https://www.setlist.fm/setlist/twenty-one-pilots/2015/gothic-theatre-englewood-co-53f2db39.html"
    },
    {
      "order": 59,
      "date": "12-11-2015",
      "venue": "Trix",
      "city": "Borgerhout",
      "country": "Belgium",
      "coords": {
        "lat": 51.117,
        "long": 5.083
      },
      "tour": "BLURRYFACE World Tour",
      "setlistId": "63f5125b",
      "url": "https://www.setlist.fm/setlist/twenty-one-pilots/2015/trix-borgerhout-belgium-63f5125b.html"
    },
    {
      "order": 60,
      "date": "12-12-2015",
      "venue": "The Forum",
      "city": "Inglewood",
      "country": "United States",
      "coords": {
        "lat": 33.9616801,
        "long": -118.3531311
      },
      "tour": "BLURRYFACE World Tour",
      "setlistId": "5bf2d720",
      "url": "https://www.setlist.fm/setlist/twenty-one-pilots/2015/the-forum-inglewood-ca-5bf2d720.html"
    },
    {
      "order": 61,
      "date": "03-02-2016",
      "venue": "Docks",
      "city": "Hamburg",
      "country": "Germany",
      "coords": {
        "lat": 53.55,
        "long": 10
      },
      "tour": "BLURRYFACE World Tour",
      "setlistId": "6bf3ca1a",
      "url": "https://www.setlist.fm/setlist/twenty-one-pilots/2016/docks-hamburg-germany-6bf3ca1a.html"
    },
    {
      "order": 62,
      "date": "04-02-2016",
      "venue": "Astra",
      "city": "Berlin",
      "country": "Germany",
      "coords": {
        "lat": 52.5166667,
        "long": 13.4
      },
      "tour": "BLURRYFACE World Tour",
      "setlistId": "1bf3c198",
      "url": "https://www.setlist.fm/setlist/twenty-one-pilots/2016/astra-berlin-germany-1bf3c198.html"
    },
    {
      "order": 63,
      "date": "05-02-2016",
      "venue": "Lucerna Music Bar",
      "city": "Prague",
      "country": "Czechia",
      "coords": {
        "lat": 50.0878367932108,
        "long": 14.4241322001241
      },
      "tour": "BLURRYFACE World Tour",
      "setlistId": "23f33c47",
      "url": "https://www.setlist.fm/setlist/twenty-one-pilots/2016/lucerna-music-bar-prague-czechia-23f33c47.html"
    },
    {
      "order": 64,
      "date": "06-02-2016",
      "venue": "Planet.tt Bank Austria Halle Gasometer",
      "city": "Vienna",
      "country": "Austria",
      "coords": {
        "lat": 48.2084877601653,
        "long": 16.3720750808716
      },
      "tour": "BLURRYFACE World Tour",
      "setlistId": "53f33b15",
      "url": "https://www.setlist.fm/setlist/twenty-one-pilots/2016/planettt-bank-austria-halle-gasometer-vienna-austria-53f33b15.html"
    },
    {
      "order": 65,
      "date": "08-02-2016",
      "venue": "Alcatraz",
      "city": "Milan",
      "country": "Italy",
      "coords": {
        "lat": 45.4642693810258,
        "long": 9.1895055770874
      },
      "tour": "BLURRYFACE World Tour",
      "setlistId": "63f332ff",
      "url": "https://www.setlist.fm/setlist/twenty-one-pilots/2016/alcatraz-milan-italy-63f332ff.html"
    },
    {
      "order": 66,
      "date": "09-02-2016",
      "venue": "Ninkasi Kao",
      "city": "Lyon",
      "country": "France",
      "coords": {
        "lat": 45.75,
        "long": 4.85
      },
      "tour": "BLURRYFACE World Tour",
      "setlistId": "33f32879",
      "url": "https://www.setlist.fm/setlist/twenty-one-pilots/2016/ninkasi-kao-lyon-france-33f32879.html"
    },
    {
      "order": 67,
      "date": "11-02-2016",
      "venue": "Tonhalle",
      "city": "Munich",
      "country": "Germany",
      "coords": {
        "lat": 48.1374325498109,
        "long": 11.5754914283752
      },
      "tour": "BLURRYFACE World Tour",
      "setlistId": "6bf31e4a",
      "url": "https://www.setlist.fm/setlist/twenty-one-pilots/2016/tonhalle-munich-germany-6bf31e4a.html"
    },
    {
      "order": 68,
      "date": "12-02-2016",
      "venue": "Palladium",
      "city": "Cologne",
      "country": "Germany",
      "coords": {
        "lat": 50.9333333,
        "long": 6.95
      },
      "tour": "BLURRYFACE World Tour",
      "setlistId": "3bf314b0",
      "url": "https://www.setlist.fm/setlist/twenty-one-pilots/2016/palladium-cologne-germany-3bf314b0.html"
    },
    {
      "order": 69,
      "date": "29-01-2016",
      "venue": "Buttermilk",
      "city": "Aspen",
      "country": "United States",
      "coords": {
        "lat": 39.1910983,
        "long": -106.8175387
      },
      "tour": "BLURRYFACE World Tour",
      "setlistId": "4bf3e7f2",
      "url": "https://www.setlist.fm/setlist/twenty-one-pilots/2016/buttermilk-aspen-co-4bf3e7f2.html"
    },
    {
      "order": 70,
      "date": "28-01-2016",
      "venue": "Belly Up",
      "city": "Aspen",
      "country": "United States",
      "coords": {
        "lat": 39.1910983,
        "long": -106.8175387
      },
      "tour": "BLURRYFACE World Tour",
      "setlistId": "3bf3e878",
      "url": "https://www.setlist.fm/setlist/twenty-one-pilots/2016/belly-up-aspen-co-3bf3e878.html"
    },
    {
      "order": 71,
      "date": "17-12-2015",
      "venue": "Saint Andrew's Hall",
      "city": "Detroit",
      "country": "United States",
      "coords": {
        "lat": 42.331427,
        "long": -83.0457538
      },
      "tour": "BLURRYFACE World Tour",
      "setlistId": "4bf23fa6",
      "url": "https://www.setlist.fm/setlist/twenty-one-pilots/2015/saint-andrews-hall-detroit-mi-4bf23fa6.html"
    },
    {
      "order": 72,
      "date": "16-12-2015",
      "venue": "The Tonight Show Starring Jimmy Fallon",
      "city": "New York",
      "country": "United States",
      "coords": {
        "lat": 40.7142691,
        "long": -74.0059729
      },
      "tour": "BLURRYFACE World Tour",
      "setlistId": "4bf227de",
      "url": "https://www.setlist.fm/setlist/twenty-one-pilots/2015/the-tonight-show-starring-jimmy-fallon-new-york-ny-4bf227de.html"
    },
    {
      "order": 73,
      "date": "14-12-2015",
      "venue": "Ace of Spades",
      "city": "Sacramento",
      "country": "United States",
      "coords": {
        "lat": 38.5815719,
        "long": -121.4943996
      },
      "tour": "BLURRYFACE World Tour",
      "setlistId": "53f2cbd5",
      "url": "https://www.setlist.fm/setlist/twenty-one-pilots/2015/ace-of-spades-sacramento-ca-53f2cbd5.html"
    },
    {
      "order": 74,
      "date": "22-11-2015",
      "venue": "Autódromo Hermanos Rodríguez",
      "city": "Mexico City",
      "country": "Mexico",
      "coords": {
        "lat": 19.434,
        "long": -99.139
      },
      "tour": "BLURRYFACE World Tour",
      "setlistId": "23f5506f",
      "url": "https://www.setlist.fm/setlist/twenty-one-pilots/2015/autodromo-hermanos-rodriguez-mexico-city-mexico-23f5506f.html"
    },
    {
      "order": 75,
      "date": "13-11-2015",
      "venue": "Ronda",
      "city": "Utrecht",
      "country": "Netherlands",
      "coords": {
        "lat": 52.090833,
        "long": 5.122222
      },
      "tour": "BLURRYFACE World Tour",
      "setlistId": "5bf50f88",
      "url": "https://www.setlist.fm/setlist/twenty-one-pilots/2015/ronda-utrecht-netherlands-5bf50f88.html"
    },
    {
      "order": 76,
      "date": "31-10-2015",
      "venue": "Chaifetz Arena",
      "city": "St. Louis",
      "country": "United States",
      "coords": {
        "lat": 38.6272733,
        "long": -90.1978889
      },
      "tour": "BLURRYFACE World Tour",
      "setlistId": "63f5de5b",
      "url": "https://www.setlist.fm/setlist/twenty-one-pilots/2015/chaifetz-arena-st-louis-mo-63f5de5b.html"
    },
    {
      "order": 77,
      "date": "30-10-2015",
      "venue": "Eagles Ballroom",
      "city": "Milwaukee",
      "country": "United States",
      "coords": {
        "lat": 43.0389025,
        "long": -87.9064736
      },
      "tour": "BLURRYFACE World Tour",
      "setlistId": "3f5e1f7",
      "url": "https://www.setlist.fm/setlist/twenty-one-pilots/2015/eagles-ballroom-milwaukee-wi-3f5e1f7.html"
    },
    {
      "order": 78,
      "date": "29-10-2015",
      "venue": "Myth",
      "city": "Maplewood",
      "country": "United States",
      "coords": {
        "lat": 44.9530215,
        "long": -92.9952153
      },
      "tour": "BLURRYFACE World Tour",
      "setlistId": "23f5e823",
      "url": "https://www.setlist.fm/setlist/twenty-one-pilots/2015/myth-maplewood-mn-23f5e823.html"
    },
    {
      "order": 79,
      "date": "28-10-2015",
      "venue": "The District",
      "city": "Sioux Falls",
      "country": "United States",
      "coords": {
        "lat": 43.5499749,
        "long": -96.700327
      },
      "tour": "BLURRYFACE World Tour",
      "setlistId": "7bf5f600",
      "url": "https://www.setlist.fm/setlist/twenty-one-pilots/2015/the-district-sioux-falls-sd-7bf5f600.html"
    },
    {
      "order": 80,
      "date": "25-10-2015",
      "venue": "Piazza del Duomo",
      "city": "Milan",
      "country": "Italy",
      "coords": {
        "lat": 45.4642693810258,
        "long": 9.1895055770874
      },
      "tour": "BLURRYFACE World Tour",
      "setlistId": "33f58425",
      "url": "https://www.setlist.fm/setlist/twenty-one-pilots/2015/piazza-del-duomo-milan-italy-33f58425.html"
    },
    {
      "order": 81,
      "date": "22-10-2015",
      "venue": "Paramount Theatre",
      "city": "Seattle",
      "country": "United States",
      "coords": {
        "lat": 47.6062095,
        "long": -122.3320708
      },
      "tour": "BLURRYFACE World Tour",
      "setlistId": "63f5aa77",
      "url": "https://www.setlist.fm/setlist/twenty-one-pilots/2015/paramount-theatre-seattle-wa-63f5aa77.html"
    },
    {
      "order": 82,
      "date": "21-10-2015",
      "venue": "Revolution Concert House & Event Center",
      "city": "Garden City",
      "country": "United States",
      "coords": {
        "lat": 43.6221108,
        "long": -116.2381744
      },
      "tour": "BLURRYFACE World Tour",
      "setlistId": "6bf5aa72",
      "url": "https://www.setlist.fm/setlist/twenty-one-pilots/2015/revolution-concert-house-and-event-center-garden-city-id-6bf5aa72.html"
    },
    {
      "order": 83,
      "date": "20-10-2015",
      "venue": "Crystal Ballroom",
      "city": "Portland",
      "country": "United States",
      "coords": {
        "lat": 45.5234515,
        "long": -122.6762071
      },
      "tour": "BLURRYFACE World Tour",
      "setlistId": "73f5b6d9",
      "url": "https://www.setlist.fm/setlist/twenty-one-pilots/2015/crystal-ballroom-portland-or-73f5b6d9.html"
    },
    {
      "order": 84,
      "date": "18-10-2015",
      "venue": "Fox Theater",
      "city": "Oakland",
      "country": "United States",
      "coords": {
        "lat": 37.8043722,
        "long": -122.2708026
      },
      "tour": "BLURRYFACE World Tour",
      "setlistId": "53f447c1",
      "url": "https://www.setlist.fm/setlist/twenty-one-pilots/2015/fox-theater-oakland-ca-53f447c1.html"
    },
    {
      "order": 85,
      "date": "17-10-2015",
      "venue": "Fox Theater",
      "city": "Oakland",
      "country": "United States",
      "coords": {
        "lat": 37.8043722,
        "long": -122.2708026
      },
      "tour": "BLURRYFACE World Tour",
      "setlistId": "23f4503b",
      "url": "https://www.setlist.fm/setlist/twenty-one-pilots/2015/fox-theater-oakland-ca-23f4503b.html"
    },
    {
      "order": 86,
      "date": "16-10-2015",
      "venue": "Cal Coast Credit Union Open Air Theatre",
      "city": "San Diego",
      "country": "United States",
      "coords": {
        "lat": 32.7153292,
        "long": -117.1572551
      },
      "tour": "BLURRYFACE World Tour",
      "setlistId": "33f4503d",
      "url": "https://www.setlist.fm/setlist/twenty-one-pilots/2015/cal-coast-credit-union-open-air-theatre-san-diego-ca-33f4503d.html"
    },
    {
      "order": 87,
      "date": "15-10-2015",
      "venue": "Greek Theatre",
      "city": "Los Angeles",
      "country": "United States",
      "coords": {
        "lat": 34.052,
        "long": -118.244
      },
      "tour": "BLURRYFACE World Tour",
      "setlistId": "63f45a2b",
      "url": "https://www.setlist.fm/setlist/twenty-one-pilots/2015/greek-theatre-los-angeles-ca-63f45a2b.html"
    },
    {
      "order": 88,
      "date": "13-10-2015",
      "venue": "Comerica Theatre",
      "city": "Phoenix",
      "country": "United States",
      "coords": {
        "lat": 33.4483771,
        "long": -112.0740373
      },
      "tour": "BLURRYFACE World Tour",
      "setlistId": "1bf46988",
      "url": "https://www.setlist.fm/setlist/twenty-one-pilots/2015/comerica-theatre-phoenix-az-1bf46988.html"
    },
    {
      "order": 89,
      "date": "01-10-2015",
      "venue": "South Side Ballroom",
      "city": "Dallas",
      "country": "United States",
      "coords": {
        "lat": 32.7830556,
        "long": -96.8066667
      },
      "tour": "BLURRYFACE World Tour",
      "setlistId": "53f42755",
      "url": "https://www.setlist.fm/setlist/twenty-one-pilots/2015/south-side-ballroom-dallas-tx-53f42755.html"
    },
    {
      "order": 90,
      "date": "02-10-2015",
      "venue": "Revention Music Center",
      "city": "Houston",
      "country": "United States",
      "coords": {
        "lat": 29.7632836,
        "long": -95.3632715
      },
      "tour": "BLURRYFACE World Tour",
      "setlistId": "6bf3928a",
      "url": "https://www.setlist.fm/setlist/twenty-one-pilots/2015/revention-music-center-houston-tx-6bf3928a.html"
    },
    {
      "order": 91,
      "date": "03-09-2015",
      "venue": "UIC Pavilion",
      "city": "Chicago",
      "country": "United States",
      "coords": {
        "lat": 41.850033,
        "long": -87.6500523
      },
      "tour": "BLURRYFACE World Tour",
      "setlistId": "53b43bc5",
      "url": "https://www.setlist.fm/setlist/twenty-one-pilots/2015/uic-pavilion-chicago-il-53b43bc5.html"
    },
    {
      "order": 92,
      "date": "03-10-2015",
      "venue": "Zilker Park",
      "city": "Austin",
      "country": "United States",
      "coords": {
        "lat": 30.267153,
        "long": -97.7430608
      },
      "tour": "BLURRYFACE World Tour",
      "setlistId": "53f42fd5",
      "url": "https://www.setlist.fm/setlist/twenty-one-pilots/2015/zilker-park-austin-tx-53f42fd5.html"
    },
    {
      "order": 93,
      "date": "04-09-2015",
      "venue": "Marcus Amphitheater",
      "city": "Milwaukee",
      "country": "United States",
      "coords": {
        "lat": 43.0389025,
        "long": -87.9064736
      },
      "tour": "BLURRYFACE World Tour",
      "setlistId": "4bf76742",
      "url": "https://www.setlist.fm/setlist/twenty-one-pilots/2015/marcus-amphitheater-milwaukee-wi-4bf76742.html"
    },
    {
      "order": 94,
      "date": "05-10-2015",
      "venue": "Ryman Auditorium",
      "city": "Nashville",
      "country": "United States",
      "coords": {
        "lat": 36.1658899,
        "long": -86.7844432
      },
      "tour": "BLURRYFACE World Tour",
      "setlistId": "7bf42224",
      "url": "https://www.setlist.fm/setlist/twenty-one-pilots/2015/ryman-auditorium-nashville-tn-7bf42224.html"
    },
    {
      "order": 95,
      "date": "06-10-2015",
      "venue": "Tabernacle",
      "city": "Atlanta",
      "country": "United States",
      "coords": {
        "lat": 33.7489954,
        "long": -84.3879824
      },
      "tour": "BLURRYFACE World Tour",
      "setlistId": "43f4176b",
      "url": "https://www.setlist.fm/setlist/twenty-one-pilots/2015/tabernacle-atlanta-ga-43f4176b.html"
    },
    {
      "order": 96,
      "date": "07-10-2015",
      "venue": "Tabernacle",
      "city": "Atlanta",
      "country": "United States",
      "coords": {
        "lat": 33.7489954,
        "long": -84.3879824
      },
      "tour": "BLURRYFACE World Tour",
      "setlistId": "3f40da3",
      "url": "https://www.setlist.fm/setlist/twenty-one-pilots/2015/tabernacle-atlanta-ga-3f40da3.html"
    },
    {
      "order": 97,
      "date": "08-09-2015",
      "venue": "Echostage",
      "city": "Washington",
      "country": "United States",
      "coords": {
        "lat": 38.895,
        "long": -77.036
      },
      "tour": "BLURRYFACE World Tour",
      "setlistId": "bf7a966",
      "url": "https://www.setlist.fm/setlist/twenty-one-pilots/2015/echostage-washington-dc-bf7a966.html"
    },
    {
      "order": 98,
      "date": "08-10-2015",
      "venue": "House of Blues",
      "city": "Lake Buena Vista",
      "country": "United States",
      "coords": {
        "lat": 28.3936186,
        "long": -81.5386842
      },
      "tour": "BLURRYFACE World Tour",
      "setlistId": "73f40ed9",
      "url": "https://www.setlist.fm/setlist/twenty-one-pilots/2015/house-of-blues-lake-buena-vista-fl-73f40ed9.html"
    },
    {
      "order": 99,
      "date": "10-10-2015",
      "venue": "Zilker Park",
      "city": "Austin",
      "country": "United States",
      "coords": {
        "lat": 30.267153,
        "long": -97.7430608
      },
      "tour": "BLURRYFACE World Tour",
      "setlistId": "1bf40568",
      "url": "https://www.setlist.fm/setlist/twenty-one-pilots/2015/zilker-park-austin-tx-1bf40568.html"
    },
    {
      "order": 100,
      "date": "11-10-2015",
      "venue": "Diamond Ballroom",
      "city": "Oklahoma City",
      "country": "United States",
      "coords": {
        "lat": 35.4675602,
        "long": -97.5164276
      },
      "tour": "BLURRYFACE World Tour",
      "setlistId": "bf47582",
      "url": "https://www.setlist.fm/setlist/twenty-one-pilots/2015/diamond-ballroom-oklahoma-city-ok-bf47582.html"
    },
    {
      "order": 101,
      "date": "29-09-2015",
      "venue": "Z104.5 The Edge Studios",
      "city": "Tulsa",
      "country": "United States",
      "coords": {
        "lat": 36.1539816,
        "long": -95.992775
      },
      "tour": "BLURRYFACE World Tour",
      "setlistId": "b5c6106",
      "url": "https://www.setlist.fm/setlist/twenty-one-pilots/2015/z1045-the-edge-studios-tulsa-ok-b5c6106.html"
    },
    {
      "order": 102,
      "date": "29-09-2015",
      "venue": "Brady Theater",
      "city": "Tulsa",
      "country": "United States",
      "coords": {
        "lat": 36.1539816,
        "long": -95.992775
      },
      "tour": "BLURRYFACE World Tour",
      "setlistId": "73f4c245",
      "url": "https://www.setlist.fm/setlist/twenty-one-pilots/2015/brady-theater-tulsa-ok-73f4c245.html"
    },
    {
      "order": 103,
      "date": "27-09-2015",
      "venue": "Red Rocks Amphitheatre",
      "city": "Morrison",
      "country": "United States",
      "coords": {
        "lat": 39.6535988,
        "long": -105.1910996
      },
      "tour": "BLURRYFACE World Tour",
      "setlistId": "53f4df09",
      "url": "https://www.setlist.fm/setlist/twenty-one-pilots/2015/red-rocks-amphitheatre-morrison-co-53f4df09.html"
    },
    {
      "order": 104,
      "date": "26-09-2015",
      "venue": "Saltair",
      "city": "Magna",
      "country": "United States",
      "coords": {
        "lat": 40.7091121,
        "long": -112.1016088
      },
      "tour": "BLURRYFACE World Tour",
      "setlistId": "43f4df0b",
      "url": "https://www.setlist.fm/setlist/twenty-one-pilots/2015/saltair-magna-ut-43f4df0b.html"
    },
    {
      "order": 105,
      "date": "25-09-2015",
      "venue": "Downtown Las Vegas Fremont Street",
      "city": "Las Vegas",
      "country": "United States",
      "coords": {
        "lat": 36.1749705,
        "long": -115.137223
      },
      "tour": "BLURRYFACE World Tour",
      "setlistId": "23f4f087",
      "url": "https://www.setlist.fm/setlist/twenty-one-pilots/2015/downtown-las-vegas-fremont-street-las-vegas-nv-23f4f087.html"
    },
    {
      "order": 106,
      "date": "23-09-2015",
      "venue": "SumTur Amphitheater",
      "city": "Papillion",
      "country": "United States",
      "coords": {
        "lat": 41.1544433,
        "long": -96.0422378
      },
      "tour": "BLURRYFACE World Tour",
      "setlistId": "73f48609",
      "url": "https://www.setlist.fm/setlist/twenty-one-pilots/2015/sumtur-amphitheater-papillion-ne-73f48609.html"
    },
    {
      "order": 107,
      "date": "22-09-2015",
      "venue": "Starlight Theater",
      "city": "Kansas City",
      "country": "United States",
      "coords": {
        "lat": 39.0997266,
        "long": -94.5785667
      },
      "tour": "BLURRYFACE World Tour",
      "setlistId": "6bf4825a",
      "url": "https://www.setlist.fm/setlist/twenty-one-pilots/2015/starlight-theater-kansas-city-mo-6bf4825a.html"
    },
    {
      "order": 108,
      "date": "20-09-2015",
      "venue": "Farm Bureau Insurance Lawn at White River State Park",
      "city": "Indianapolis",
      "country": "United States",
      "coords": {
        "lat": 39.7683765,
        "long": -86.1580423
      },
      "tour": "BLURRYFACE World Tour",
      "setlistId": "3bf494dc",
      "url": "https://www.setlist.fm/setlist/twenty-one-pilots/2015/farm-bureau-insurance-lawn-at-white-river-state-park-indianapolis-in-3bf494dc.html"
    },
    {
      "order": 109,
      "date": "19-09-2015",
      "venue": "Meadow Brook Music Festival",
      "city": "Rochester Hills",
      "country": "United States",
      "coords": {
        "lat": 42.6583661,
        "long": -83.1499322
      },
      "tour": "BLURRYFACE World Tour",
      "setlistId": "6bf49ed6",
      "url": "https://www.setlist.fm/setlist/twenty-one-pilots/2015/meadow-brook-music-festival-rochester-hills-mi-6bf49ed6.html"
    },
    {
      "order": 110,
      "date": "18-09-2015",
      "venue": "Value City Arena",
      "city": "Columbus",
      "country": "United States",
      "coords": {
        "lat": 39.9611755,
        "long": -82.9987942
      },
      "tour": "BLURRYFACE World Tour",
      "setlistId": "73f49609",
      "url": "https://www.setlist.fm/setlist/twenty-one-pilots/2015/value-city-arena-columbus-oh-73f49609.html"
    },
    {
      "order": 111,
      "date": "16-09-2015",
      "venue": "Hammerstein Ballroom",
      "city": "New York",
      "country": "United States",
      "coords": {
        "lat": 40.7142691,
        "long": -74.0059729
      },
      "tour": "BLURRYFACE World Tour",
      "setlistId": "63f4b20b",
      "url": "https://www.setlist.fm/setlist/twenty-one-pilots/2015/hammerstein-ballroom-new-york-ny-63f4b20b.html"
    },
    {
      "order": 112,
      "date": "15-09-2015",
      "venue": "Hammerstein Ballroom",
      "city": "New York",
      "country": "United States",
      "coords": {
        "lat": 40.7142691,
        "long": -74.0059729
      },
      "tour": "BLURRYFACE World Tour",
      "setlistId": "73f4b215",
      "url": "https://www.setlist.fm/setlist/twenty-one-pilots/2015/hammerstein-ballroom-new-york-ny-73f4b215.html"
    },
    {
      "order": 113,
      "date": "13-09-2015",
      "venue": "Sound Academy",
      "city": "Toronto",
      "country": "Canada",
      "coords": {
        "lat": 43.700113788,
        "long": -79.416304194
      },
      "tour": "BLURRYFACE World Tour",
      "setlistId": "3f4bd97",
      "url": "https://www.setlist.fm/setlist/twenty-one-pilots/2015/sound-academy-toronto-on-canada-3f4bd97.html"
    },
    {
      "order": 114,
      "date": "09-09-2015",
      "venue": "Echostage",
      "city": "Washington",
      "country": "United States",
      "coords": {
        "lat": 38.895,
        "long": -77.036
      },
      "tour": "BLURRYFACE World Tour",
      "setlistId": "13f7a9c9",
      "url": "https://www.setlist.fm/setlist/twenty-one-pilots/2015/echostage-washington-dc-13f7a9c9.html"
    },
    {
      "order": 115,
      "date": "11-09-2015",
      "venue": "Festival Pier at Penn's Landing",
      "city": "Philadelphia",
      "country": "United States",
      "coords": {
        "lat": 39.952335,
        "long": -75.163789
      },
      "tour": "BLURRYFACE World Tour",
      "setlistId": "13f4bd91",
      "url": "https://www.setlist.fm/setlist/twenty-one-pilots/2015/festival-pier-at-penns-landing-philadelphia-pa-13f4bd91.html"
    },
    {
      "order": 116,
      "date": "12-09-2015",
      "venue": "Blue Hills Bank Pavilion",
      "city": "Boston",
      "country": "United States",
      "coords": {
        "lat": 42.3584308,
        "long": -71.0597732
      },
      "tour": "BLURRYFACE World Tour",
      "setlistId": "1bf4bd90",
      "url": "https://www.setlist.fm/setlist/twenty-one-pilots/2015/blue-hills-bank-pavilion-boston-ma-1bf4bd90.html"
    },
    {
      "order": 117,
      "date": "26-08-2015",
      "venue": "Custom House Square",
      "city": "Belfast",
      "country": "United Kingdom",
      "coords": {
        "lat": 54.5833333,
        "long": -5.9333333
      },
      "tour": "BLURRYFACE World Tour",
      "setlistId": "1bf71dec",
      "url": "https://www.setlist.fm/setlist/twenty-one-pilots/2015/custom-house-square-belfast-northern-ireland-1bf71dec.html"
    },
    {
      "order": 118,
      "date": "23-08-2015",
      "venue": "Evenemententerrein Walibi Holland",
      "city": "Biddinghuizen",
      "country": "Netherlands",
      "coords": {
        "lat": 52.455,
        "long": 5.693056
      },
      "tour": "BLURRYFACE World Tour",
      "setlistId": "3f729cf",
      "url": "https://www.setlist.fm/setlist/twenty-one-pilots/2015/evenemententerrein-walibi-holland-biddinghuizen-netherlands-3f729cf.html"
    },
    {
      "order": 119,
      "date": "21-08-2015",
      "venue": "Domein Kiewit",
      "city": "Hasselt",
      "country": "Belgium",
      "coords": {
        "lat": 50.93,
        "long": 5.338
      },
      "tour": "BLURRYFACE World Tour",
      "setlistId": "1bf7d564",
      "url": "https://www.setlist.fm/setlist/twenty-one-pilots/2015/domein-kiewit-hasselt-belgium-1bf7d564.html"
    },
    {
      "order": 120,
      "date": "02-08-2015",
      "venue": "House of Blues",
      "city": "Chicago",
      "country": "United States",
      "coords": {
        "lat": 41.850033,
        "long": -87.6500523
      },
      "tour": "BLURRYFACE World Tour",
      "setlistId": "3bf64404",
      "url": "https://www.setlist.fm/setlist/twenty-one-pilots/2015/house-of-blues-chicago-il-3bf64404.html"
    },
    {
      "order": 121,
      "date": "02-08-2015",
      "venue": "Grant Park",
      "city": "Chicago",
      "country": "United States",
      "coords": {
        "lat": 41.850033,
        "long": -87.6500523
      },
      "tour": "BLURRYFACE World Tour",
      "setlistId": "13f65de5",
      "url": "https://www.setlist.fm/setlist/twenty-one-pilots/2015/grant-park-chicago-il-13f65de5.html"
    },
    {
      "order": 122,
      "date": "31-07-2015",
      "venue": "Parc Jean-Drapeau",
      "city": "Montreal",
      "country": "Canada",
      "coords": {
        "lat": 45.5088375,
        "long": -73.587809
      },
      "tour": "BLURRYFACE World Tour",
      "setlistId": "7bf66e58",
      "url": "https://www.setlist.fm/setlist/twenty-one-pilots/2015/parc-jean-drapeau-montreal-qc-canada-7bf66e58.html"
    },
    {
      "order": 123,
      "date": "28-07-2015",
      "venue": "QSW Culture Centre",
      "city": "Shanghai",
      "country": "China",
      "coords": {
        "lat": 31.2222222,
        "long": 121.4580556
      },
      "tour": "BLURRYFACE World Tour",
      "setlistId": "43f607ef",
      "url": "https://www.setlist.fm/setlist/twenty-one-pilots/2015/qsw-culture-centre-shanghai-china-43f607ef.html"
    },
    {
      "order": 124,
      "date": "26-07-2015",
      "venue": "Daebu Sea Breeze Theme Park",
      "city": "Ansan",
      "country": "South Korea",
      "coords": {
        "lat": 37.365,
        "long": 127.4638889
      },
      "tour": "BLURRYFACE World Tour",
      "setlistId": "bf61186",
      "url": "https://www.setlist.fm/setlist/twenty-one-pilots/2015/daebu-sea-breeze-theme-park-ansan-south-korea-bf61186.html"
    },
    {
      "order": 125,
      "date": "25-07-2015",
      "venue": "WHITE STAGE",
      "city": "Yuzawa",
      "country": "Japan",
      "coords": {
        "lat": 36.9333333,
        "long": 138.8166667
      },
      "tour": "BLURRYFACE World Tour",
      "setlistId": "23f61807",
      "url": "https://www.setlist.fm/setlist/twenty-one-pilots/2015/white-stage-yuzawa-japan-23f61807.html"
    },
    {
      "order": 126,
      "date": "22-07-2015",
      "venue": "Muang Thai GMM Live House",
      "city": "Bangkok",
      "country": "Thailand",
      "coords": {
        "lat": 13.75,
        "long": 100.5166667
      },
      "tour": "BLURRYFACE World Tour",
      "setlistId": "73f632ad",
      "url": "https://www.setlist.fm/setlist/twenty-one-pilots/2015/muang-thai-gmm-live-house-bangkok-thailand-73f632ad.html"
    },
    {
      "order": 127,
      "date": "21-07-2015",
      "venue": "Star Hall",
      "city": "Kowloon",
      "country": "Hong Kong SAR China",
      "coords": {
        "lat": 22.317,
        "long": 114.183
      },
      "tour": "BLURRYFACE World Tour",
      "setlistId": "73f63a85",
      "url": "https://www.setlist.fm/setlist/twenty-one-pilots/2015/star-hall-kowloon-hong-kong-sar-china-73f63a85.html"
    },
    {
      "order": 128,
      "date": "19-07-2015",
      "venue": "TriNoma Activity Center",
      "city": "Quezon City",
      "country": "Philippines",
      "coords": {
        "lat": 14.6438889,
        "long": 121.0375
      },
      "tour": "BLURRYFACE World Tour",
      "setlistId": "6bf6c662",
      "url": "https://www.setlist.fm/setlist/twenty-one-pilots/2015/trinoma-activity-center-quezon-city-philippines-6bf6c662.html"
    },
    {
      "order": 129,
      "date": "18-07-2015",
      "venue": "Alabang Town Center",
      "city": "Muntinlupa",
      "country": "Philippines",
      "coords": {
        "lat": 14.3902778,
        "long": 121.0475
      },
      "tour": "BLURRYFACE World Tour",
      "setlistId": "33f628f5",
      "url": "https://www.setlist.fm/setlist/twenty-one-pilots/2015/alabang-town-center-muntinlupa-philippines-33f628f5.html"
    },
    {
      "order": 130,
      "date": "16-07-2015",
      "venue": "Suntec Singapore Convention & Exhibition Centre",
      "city": "Singapore",
      "country": "Singapore",
      "coords": {
        "lat": 1.293,
        "long": 103.856
      },
      "tour": "BLURRYFACE World Tour",
      "setlistId": "43f6dfa7",
      "url": "https://www.setlist.fm/setlist/twenty-one-pilots/2015/suntec-singapore-convention-and-exhibition-centre-singapore-singapore-43f6dfa7.html"
    },
    {
      "order": 131,
      "date": "03-06-2015",
      "venue": "The Rave",
      "city": "Milwaukee",
      "country": "United States",
      "coords": {
        "lat": 43.0389025,
        "long": -87.9064736
      },
      "tour": "BLURRYFACE World Tour",
      "setlistId": "7393da71",
      "url": "https://www.setlist.fm/setlist/twenty-one-pilots/2015/the-rave-milwaukee-wi-7393da71.html"
    },
    {
      "order": 132,
      "date": "04-07-2015",
      "venue": "The MET Brisbane",
      "city": "Brisbane",
      "country": "Australia",
      "coords": {
        "lat": -27.4679357321901,
        "long": 153.028092384338
      },
      "tour": "BLURRYFACE World Tour",
      "setlistId": "13f69515",
      "url": "https://www.setlist.fm/setlist/twenty-one-pilots/2015/the-met-brisbane-brisbane-australia-13f69515.html"
    },
    {
      "order": 133,
      "date": "05-07-2015",
      "venue": "Corner Hotel",
      "city": "Melbourne",
      "country": "Australia",
      "coords": {
        "lat": -37.8139965641595,
        "long": 144.963322877884
      },
      "tour": "BLURRYFACE World Tour",
      "setlistId": "bf6999a",
      "url": "https://www.setlist.fm/setlist/twenty-one-pilots/2015/corner-hotel-melbourne-australia-bf6999a.html"
    },
    {
      "order": 134,
      "date": "05-07-2015",
      "venue": "Corner Hotel",
      "city": "Melbourne",
      "country": "Australia",
      "coords": {
        "lat": -37.8139965641595,
        "long": 144.963322877884
      },
      "tour": "BLURRYFACE World Tour",
      "setlistId": "3f699a7",
      "url": "https://www.setlist.fm/setlist/twenty-one-pilots/2015/corner-hotel-melbourne-australia-3f699a7.html"
    },
    {
      "order": 135,
      "date": "06-06-2015",
      "venue": "Shoreline Amphitheatre",
      "city": "Mountain View",
      "country": "United States",
      "coords": {
        "lat": 37.3860517,
        "long": -122.0838511
      },
      "tour": "BLURRYFACE World Tour",
      "setlistId": "43c9ef37",
      "url": "https://www.setlist.fm/setlist/twenty-one-pilots/2015/shoreline-amphitheatre-mountain-view-ca-43c9ef37.html"
    },
    {
      "order": 136,
      "date": "06-07-2015",
      "venue": "Unknown Venue",
      "city": "Sydney",
      "country": "Australia",
      "coords": {
        "lat": -33.8678499639382,
        "long": 151.207323074341
      },
      "tour": "BLURRYFACE World Tour",
      "setlistId": "3e43957",
      "url": "https://www.setlist.fm/setlist/twenty-one-pilots/2015/unknown-venue-sydney-australia-3e43957.html"
    },
    {
      "order": 137,
      "date": "07-06-2015",
      "venue": "Sawyer Point Park",
      "city": "Cincinnati",
      "country": "United States",
      "coords": {
        "lat": 39.1620036,
        "long": -84.4568863
      },
      "tour": "BLURRYFACE World Tour",
      "setlistId": "4bc9e73a",
      "url": "https://www.setlist.fm/setlist/twenty-one-pilots/2015/sawyer-point-park-cincinnati-oh-4bc9e73a.html"
    },
    {
      "order": 138,
      "date": "07-07-2015",
      "venue": "Metro Theatre",
      "city": "Sydney",
      "country": "Australia",
      "coords": {
        "lat": -33.8678499639382,
        "long": 151.207323074341
      },
      "tour": "BLURRYFACE World Tour",
      "setlistId": "1bf69994",
      "url": "https://www.setlist.fm/setlist/twenty-one-pilots/2015/metro-theatre-sydney-australia-1bf69994.html"
    },
    {
      "order": 139,
      "date": "09-07-2015",
      "venue": "Powerstation",
      "city": "Auckland",
      "country": "New Zealand",
      "coords": {
        "lat": -36.8666667,
        "long": 174.7666667
      },
      "tour": "BLURRYFACE World Tour",
      "setlistId": "63f6feaf",
      "url": "https://www.setlist.fm/setlist/twenty-one-pilots/2015/powerstation-auckland-new-zealand-63f6feaf.html"
    },
    {
      "order": 140,
      "date": "11-05-2015",
      "venue": "O2 ABC2",
      "city": "Glasgow",
      "country": "United Kingdom",
      "coords": {
        "lat": 55.8333333,
        "long": -4.25
      },
      "tour": "BLURRYFACE World Tour",
      "setlistId": "33c80819",
      "url": "https://www.setlist.fm/setlist/twenty-one-pilots/2015/o2-abc2-glasgow-scotland-33c80819.html"
    },
    {
      "order": 141,
      "date": "11-07-2015",
      "venue": "Saitama Super Arena",
      "city": "Saitama",
      "country": "Japan",
      "coords": {
        "lat": 35.9080659046769,
        "long": 139.656572341919
      },
      "tour": "BLURRYFACE World Tour",
      "setlistId": "5bf6dfa4",
      "url": "https://www.setlist.fm/setlist/twenty-one-pilots/2015/saitama-super-arena-saitama-japan-5bf6dfa4.html"
    },
    {
      "order": 142,
      "date": "12-05-2015",
      "venue": "The Deaf Institute",
      "city": "Manchester",
      "country": "United Kingdom",
      "coords": {
        "lat": 53.4809464283615,
        "long": -2.23743438720703
      },
      "tour": "BLURRYFACE World Tour",
      "setlistId": "53c807c9",
      "url": "https://www.setlist.fm/setlist/twenty-one-pilots/2015/the-deaf-institute-manchester-england-53c807c9.html"
    },
    {
      "order": 143,
      "date": "12-07-2015",
      "venue": "Saitama Super Arena",
      "city": "Saitama",
      "country": "Japan",
      "coords": {
        "lat": 35.9080659046769,
        "long": 139.656572341919
      },
      "tour": "BLURRYFACE World Tour",
      "setlistId": "43f6df9b",
      "url": "https://www.setlist.fm/setlist/twenty-one-pilots/2015/saitama-super-arena-saitama-japan-43f6df9b.html"
    },
    {
      "order": 144,
      "date": "30-06-2015",
      "venue": "Red Bull Sound Space KROQ",
      "city": "Los Angeles",
      "country": "United States",
      "coords": {
        "lat": 34.052,
        "long": -118.244
      },
      "tour": "BLURRYFACE World Tour",
      "setlistId": "33f6b80d",
      "url": "https://www.setlist.fm/setlist/twenty-one-pilots/2015/red-bull-sound-space-kroq-los-angeles-ca-33f6b80d.html"
    },
    {
      "order": 145,
      "date": "15-06-2015",
      "venue": "Unknown Venue",
      "city": "Berlin",
      "country": "Germany",
      "coords": {
        "lat": 52.5166667,
        "long": 13.4
      },
      "tour": "BLURRYFACE World Tour",
      "setlistId": "be4394e",
      "url": "https://www.setlist.fm/setlist/twenty-one-pilots/2015/unknown-venue-berlin-germany-be4394e.html"
    },
    {
      "order": 146,
      "date": "14-06-2015",
      "venue": "Great Stage Park",
      "city": "Manchester",
      "country": "United States",
      "coords": {
        "lat": 35.4817432,
        "long": -86.0885993
      },
      "tour": "BLURRYFACE World Tour",
      "setlistId": "7bc93a9c",
      "url": "https://www.setlist.fm/setlist/twenty-one-pilots/2015/great-stage-park-manchester-tn-7bc93a9c.html"
    },
    {
      "order": 147,
      "date": "23-05-2015",
      "venue": "The Gorge Amphitheatre",
      "city": "George",
      "country": "United States",
      "coords": {
        "lat": 47.0790224,
        "long": -119.8558822
      },
      "tour": "BLURRYFACE World Tour",
      "setlistId": "63c84a1b",
      "url": "https://www.setlist.fm/setlist/twenty-one-pilots/2015/the-gorge-amphitheatre-george-wa-63c84a1b.html"
    },
    {
      "order": 148,
      "date": "19-05-2015",
      "venue": "iHeartRadio Theater",
      "city": "Burbank",
      "country": "United States",
      "coords": {
        "lat": 34.1808392,
        "long": -118.3089661
      },
      "tour": "BLURRYFACE World Tour",
      "setlistId": "4bc84f5a",
      "url": "https://www.setlist.fm/setlist/twenty-one-pilots/2015/iheartradio-theater-burbank-ca-4bc84f5a.html"
    },
    {
      "order": 149,
      "date": "14-05-2015",
      "venue": "Boston Music Room",
      "city": "London",
      "country": "United Kingdom",
      "coords": {
        "lat": 51.5084152563931,
        "long": -0.125532746315002
      },
      "tour": "BLURRYFACE World Tour",
      "setlistId": "1bc879b0",
      "url": "https://www.setlist.fm/setlist/twenty-one-pilots/2015/boston-music-room-london-england-1bc879b0.html"
    },
    {
      "order": 150,
      "date": "13-05-2015",
      "venue": "Hare and Hounds",
      "city": "Birmingham",
      "country": "United Kingdom",
      "coords": {
        "lat": 52.4666667,
        "long": -1.9166667
      },
      "tour": "BLURRYFACE World Tour",
      "setlistId": "7bc802ac",
      "url": "https://www.setlist.fm/setlist/twenty-one-pilots/2015/hare-and-hounds-birmingham-england-7bc802ac.html"
    }
  ]
}